[
    {
        "id_store": "1352",
        "name": "Лента",
        "location": {
            "region": "Москва и МО",
            "city": "Москва",
            "address": "ул. 15-я Парковая, д. 40, к. 1",
            "latitude": "55.805078",
            "longitude": "37.819199"
        },
        "chain_store": {
            "name": "Лента"
        }
    },
    {
        "id_store": "0601",
        "name": "Лента",
        "location": {
            "region": "Москва и МО",
            "city": "Москва",
            "address": "ул. 1-я Останкинская, д. 55",
            "latitude": "55.825081",
            "longitude": "37.634134"
        },
        "chain_store": {
            "name": "Лента"
        }
    },
    {
        "id_store": "1361",
        "name": "Лента",
        "location": {
            "region": "Москва и МО",
            "city": "Москва",
            "address": "ул. 2-я Мелитопольская, д. 3A",
            "latitude": "55.53936",
            "longitude": "37.573806"
        },
        "chain_store": {
            "name": "Лента"
        }
    },
    {
        "id_store": "0124",
        "name": "Лента",
        "location": {
            "region": "Москва и МО",
            "city": "Москва",
            "address": "ул. 7-я Кожуховская, д. 9",
            "latitude": "55.710859",
            "longitude": "37.67517"
        },
        "chain_store": {
            "name": "Лента"
        }
    },
    {
        "id_store": "1371",
        "name": "Лента",
        "location": {
            "region": "Москва и МО",
            "city": "Москва",
            "address": "ул. 9-я Парковая, д. 68, корп. 5",
            "latitude": "55.808128",
            "longitude": "37.799427"
        },
        "chain_store": {
            "name": "Лента"
        }
    },
    {
        "id_store": "1340",
        "name": "Лента",
        "location": {
            "region": "Москва и МО",
            "city": "Москва",
            "address": "ул.  Академика Капицы, д. 28",
            "latitude": "55.626497",
            "longitude": "37.520321"
        },
        "chain_store": {
            "name": "Лента"
        }
    },
    {
        "id_store": "1418",
        "name": "Лента",
        "location": {
            "region": "Москва и МО",
            "city": "Москва",
            "address": "ул. Академика Королева, д. 8, лит. А",
            "latitude": "55.822281",
            "longitude": "37.62325"
        },
        "chain_store": {
            "name": "Лента"
        }
    },
    {
        "id_store": "1307",
        "name": "Лента",
        "location": {
            "region": "Москва и МО",
            "city": "Москва",
            "address": "ул. Армавирская, д. 5",
            "latitude": "55.675879",
            "longitude": "37.751682"
        },
        "chain_store": {
            "name": "Лента"
        }
    },
    {
        "id_store": "1312",
        "name": "Лента",
        "location": {
            "region": "Москва и МО",
            "city": "Москва",
            "address": "пр-д Батайский, д. 69",
            "latitude": "55.643485",
            "longitude": "37.742196"
        },
        "chain_store": {
            "name": "Лента"
        }
    },
    {
        "id_store": "1316",
        "name": "Лента",
        "location": {
            "region": "Москва и МО",
            "city": "Москва",
            "address": "ул. Бауманская, д. 32, стр. 2",
            "latitude": "55.772163",
            "longitude": "37.678325"
        },
        "chain_store": {
            "name": "Лента"
        }
    },
    {
        "id_store": "1333",
        "name": "Лента",
        "location": {
            "region": "Москва и МО",
            "city": "Москва",
            "address": "ул. Белозерская, д. 11Г",
            "latitude": "55.89767",
            "longitude": "37.613656"
        },
        "chain_store": {
            "name": "Лента"
        }
    },
    {
        "id_store": "0673",
        "name": "Лента",
        "location": {
            "region": "Москва и МО",
            "city": "Москва",
            "address": "ул. Беломорская, д. 16, А",
            "latitude": "55.862782",
            "longitude": "37.471057"
        },
        "chain_store": {
            "name": "Лента"
        }
    },
    {
        "id_store": "1303",
        "name": "Лента",
        "location": {
            "region": "Москва и МО",
            "city": "Москва",
            "address": "пер. Берников, д. 2",
            "latitude": "55.748853",
            "longitude": "37.649732"
        },
        "chain_store": {
            "name": "Лента"
        }
    },
    {
        "id_store": "0291",
        "name": "Лента",
        "location": {
            "region": "Москва и МО",
            "city": "Москва",
            "address": "ул. Бибиревская, д. 10, к. 2",
            "latitude": "55.881573",
            "longitude": "37.602309"
        },
        "chain_store": {
            "name": "Лента"
        }
    },
    {
        "id_store": "1392",
        "name": "Лента",
        "location": {
            "region": "Москва и МО",
            "city": "Москва",
            "address": "ул.  Большая Академическая, д. 17",
            "latitude": "55.824455",
            "longitude": "37.52792"
        },
        "chain_store": {
            "name": "Лента"
        }
    },
    {
        "id_store": "3165",
        "name": "Лента",
        "location": {
            "region": "Москва и МО",
            "city": "Москва",
            "address": "ул. Большая Почтовая, д. 28",
            "latitude": "55.779241",
            "longitude": "37.698052"
        },
        "chain_store": {
            "name": "Лента"
        }
    },
    {
        "id_store": "0302",
        "name": "Лента",
        "location": {
            "region": "Москва и МО",
            "city": "Москва",
            "address": "ул. Большая Черемушкинская, д. 1",
            "latitude": "55.689305",
            "longitude": "37.601543"
        },
        "chain_store": {
            "name": "Лента"
        }
    },
    {
        "id_store": "1430",
        "name": "Лента",
        "location": {
            "region": "Москва и МО",
            "city": "Москва",
            "address": "ул. Большие Каменщики, д. 6, к. 1",
            "latitude": "55.736883",
            "longitude": "37.654206"
        },
        "chain_store": {
            "name": "Лента"
        }
    },
    {
        "id_store": "1334",
        "name": "Лента",
        "location": {
            "region": "Москва и МО",
            "city": "Москва",
            "address": "ул. Борисовские пруды, д. 14, к. 5",
            "latitude": "55.632789",
            "longitude": "37.747029"
        },
        "chain_store": {
            "name": "Лента"
        }
    },
    {
        "id_store": "0029",
        "name": "Лента",
        "location": {
            "region": "Москва и МО",
            "city": "Москва",
            "address": "ул. Борисовские пруды, д. 26, к. 2",
            "latitude": "55.639017",
            "longitude": "37.758968"
        },
        "chain_store": {
            "name": "Лента"
        }
    },
    {
        "id_store": "1341",
        "name": "Лента",
        "location": {
            "region": "Москва и МО",
            "city": "Москва",
            "address": "ш. Боровское, д. 37, корп. 2",
            "latitude": "55.639634",
            "longitude": "37.361238"
        },
        "chain_store": {
            "name": "Лента"
        }
    },
    {
        "id_store": "1332",
        "name": "Лента",
        "location": {
            "region": "Москва и МО",
            "city": "Москва",
            "address": "ул. Братиславская, д. 30",
            "latitude": "55.652212",
            "longitude": "37.766217"
        },
        "chain_store": {
            "name": "Лента"
        }
    },
    {
        "id_store": "0626",
        "name": "Лента",
        "location": {
            "region": "Москва и МО",
            "city": "Москва",
            "address": "пр. Будённого, д. 18, лит. Б",
            "latitude": "55.767459",
            "longitude": "37.728948"
        },
        "chain_store": {
            "name": "Лента"
        }
    },
    {
        "id_store": "1339",
        "name": "Лента",
        "location": {
            "region": "Москва и МО",
            "city": "Москва",
            "address": "ул. Бутырский вал, д. 28",
            "latitude": "55.7827889",
            "longitude": "37.5870157"
        },
        "chain_store": {
            "name": "Лента"
        }
    },
    {
        "id_store": "1456",
        "name": "Лента",
        "location": {
            "region": "Москва и МО",
            "city": "Москва",
            "address": "пр-д Валдайский , д. 8",
            "latitude": "55.866157",
            "longitude": "37.46794"
        },
        "chain_store": {
            "name": "Лента"
        }
    },
    {
        "id_store": "3034",
        "name": "Лента",
        "location": {
            "region": "Москва и МО",
            "city": "Москва",
            "address": "ш. Варшавское, д. 168",
            "latitude": "55.582925",
            "longitude": "37.581164"
        },
        "chain_store": {
            "name": "Лента"
        }
    },
    {
        "id_store": "3037",
        "name": "Лента",
        "location": {
            "region": "Москва и МО",
            "city": "Москва",
            "address": "б-р Веласкеса, д. 3, к. 1",
            "latitude": "55.592947",
            "longitude": "37.457358"
        },
        "chain_store": {
            "name": "Лента"
        }
    },
    {
        "id_store": "1397",
        "name": "Лента",
        "location": {
            "region": "Москва и МО",
            "city": "Москва",
            "address": "ул. Вешняковская, д. 13А",
            "latitude": "55.735854",
            "longitude": "37.830006"
        },
        "chain_store": {
            "name": "Лента"
        }
    },
    {
        "id_store": "1446",
        "name": "Лента",
        "location": {
            "region": "Москва и МО",
            "city": "Москва",
            "address": "ул. Винокурова, д. 4, к. 1",
            "latitude": "55.689157",
            "longitude": "37.58287"
        },
        "chain_store": {
            "name": "Лента"
        }
    },
    {
        "id_store": "0160",
        "name": "Лента",
        "location": {
            "region": "Москва и МО",
            "city": "Москва",
            "address": "пр. Волгоградский, д. 177, стр. 1",
            "latitude": "55.701755",
            "longitude": "37.796265"
        },
        "chain_store": {
            "name": "Лента"
        }
    },
    {
        "id_store": "1304",
        "name": "Лента",
        "location": {
            "region": "Москва и МО",
            "city": "Москва",
            "address": "пр-т Волгоградский, д. 73, стр. 1",
            "latitude": "55.709951",
            "longitude": "37.74419"
        },
        "chain_store": {
            "name": "Лента"
        }
    },
    {
        "id_store": "1348",
        "name": "Лента",
        "location": {
            "region": "Москва и МО",
            "city": "Москва",
            "address": "б-р Волжский, квартал 114А, к. 10",
            "latitude": "55.700999",
            "longitude": "37.751799"
        },
        "chain_store": {
            "name": "Лента"
        }
    },
    {
        "id_store": "1311",
        "name": "Лента",
        "location": {
            "region": "Москва и МО",
            "city": "Москва",
            "address": "ул. Воронежская, д. 7",
            "latitude": "55.610138",
            "longitude": "37.72767"
        },
        "chain_store": {
            "name": "Лента"
        }
    },
    {
        "id_store": "1347",
        "name": "Лента",
        "location": {
            "region": "Москва и МО",
            "city": "Москва",
            "address": "ул. Гарибальди, д. 4, лит. Г",
            "latitude": "55.67693",
            "longitude": "37.534406"
        },
        "chain_store": {
            "name": "Лента"
        }
    },
    {
        "id_store": "1338",
        "name": "Лента",
        "location": {
            "region": "Москва и МО",
            "city": "Москва",
            "address": "ул. Генерала Белова, д. 59",
            "latitude": "55.602825",
            "longitude": "37.727266"
        },
        "chain_store": {
            "name": "Лента"
        }
    },
    {
        "id_store": "1320",
        "name": "Лента",
        "location": {
            "region": "Москва и МО",
            "city": "Москва",
            "address": "ул. Генерала Тюленева, д. 4А, стр. 3",
            "latitude": "55.625486",
            "longitude": "37.483517"
        },
        "chain_store": {
            "name": "Лента"
        }
    },
    {
        "id_store": "0614",
        "name": "Лента",
        "location": {
            "region": "Москва и МО",
            "city": "Москва",
            "address": "ул. Гурьянова, д. 2, А",
            "latitude": "55.693885",
            "longitude": "37.723008"
        },
        "chain_store": {
            "name": "Лента"
        }
    },
    {
        "id_store": "1445",
        "name": "Лента",
        "location": {
            "region": "Москва и МО",
            "city": "Москва",
            "address": "ул. Дегунинская, д. 13",
            "latitude": "55.865647",
            "longitude": "37.534658"
        },
        "chain_store": {
            "name": "Лента"
        }
    },
    {
        "id_store": "0293",
        "name": "Лента",
        "location": {
            "region": "Москва и МО",
            "city": "Москва",
            "address": "ш. Дмитровское, д. 116, Д",
            "latitude": "55.902147",
            "longitude": "37.548111"
        },
        "chain_store": {
            "name": "Лента"
        }
    },
    {
        "id_store": "1404",
        "name": "Лента",
        "location": {
            "region": "Москва и МО",
            "city": "Москва",
            "address": "ш. Дмитровское, д. 101, к. 1",
            "latitude": "55.875728",
            "longitude": "37.545779"
        },
        "chain_store": {
            "name": "Лента"
        }
    },
    {
        "id_store": "1393",
        "name": "Лента",
        "location": {
            "region": "Москва и МО",
            "city": "Москва",
            "address": "ш. Дмитровское , д. 113, корп. 1",
            "latitude": "55.883499",
            "longitude": "37.541368"
        },
        "chain_store": {
            "name": "Лента"
        }
    },
    {
        "id_store": "1373",
        "name": "Лента",
        "location": {
            "region": "Москва и МО",
            "city": "Москва",
            "address": "ул.  Дубнинская, д. 12, корп. 3",
            "latitude": "55.865632",
            "longitude": "37.57059"
        },
        "chain_store": {
            "name": "Лента"
        }
    },
    {
        "id_store": "1377",
        "name": "Лента",
        "location": {
            "region": "Москва и МО",
            "city": "Москва",
            "address": "ул. Дудинка, д. 2, к. 1",
            "latitude": "55.862136",
            "longitude": "37.689617"
        },
        "chain_store": {
            "name": "Лента"
        }
    },
    {
        "id_store": "1387",
        "name": "Лента",
        "location": {
            "region": "Москва и МО",
            "city": "Москва",
            "address": "ул. Живописная, д. 12, корп. 1",
            "latitude": "55.784435",
            "longitude": "37.45707"
        },
        "chain_store": {
            "name": "Лента"
        }
    },
    {
        "id_store": "1305",
        "name": "Лента",
        "location": {
            "region": "Москва и МО",
            "city": "Москва",
            "address": "пр-т Зеленый, д. 24, стр. 1",
            "latitude": "55.750314",
            "longitude": "37.790039"
        },
        "chain_store": {
            "name": "Лента"
        }
    },
    {
        "id_store": "0680",
        "name": "Лента",
        "location": {
            "region": "Москва и МО",
            "city": "Москва",
            "address": "ул. Зои и Александра Космодемьянских, д. 23",
            "latitude": "55.824106",
            "longitude": "37.518084"
        },
        "chain_store": {
            "name": "Лента"
        }
    },
    {
        "id_store": "0606",
        "name": "Лента",
        "location": {
            "region": "Москва и МО",
            "city": "Москва",
            "address": "ул. Ивана Франко, д. 38, к. 1",
            "latitude": "55.728204",
            "longitude": "37.415963"
        },
        "chain_store": {
            "name": "Лента"
        }
    },
    {
        "id_store": "1450",
        "name": "Лента",
        "location": {
            "region": "Москва и МО",
            "city": "Москва",
            "address": "б-р Измайловский, д. 60/10",
            "latitude": "55.796602",
            "longitude": "37.813639"
        },
        "chain_store": {
            "name": "Лента"
        }
    },
    {
        "id_store": "1378",
        "name": "Лента",
        "location": {
            "region": "Москва и МО",
            "city": "Москва",
            "address": "пр-д Измайловский , д. 3, стр. 2",
            "latitude": "55.795484",
            "longitude": "37.768256"
        },
        "chain_store": {
            "name": "Лента"
        }
    },
    {
        "id_store": "1313",
        "name": "Лента",
        "location": {
            "region": "Москва и МО",
            "city": "Москва",
            "address": "ул. Изюмская, д. 36",
            "latitude": "55.54744232",
            "longitude": "37.56530923"
        },
        "chain_store": {
            "name": "Лента"
        }
    },
    {
        "id_store": "1386",
        "name": "Лента",
        "location": {
            "region": "Москва и МО",
            "city": "Москва",
            "address": "ул. Исаковского, д. 6, корп. 2",
            "latitude": "55.816895",
            "longitude": "37.403378"
        },
        "chain_store": {
            "name": "Лента"
        }
    },
    {
        "id_store": "1308",
        "name": "Лента",
        "location": {
            "region": "Москва и МО",
            "city": "Москва",
            "address": "ул. Кантемировская, д. 17, к. 1",
            "latitude": "55.636717",
            "longitude": "37.671166"
        },
        "chain_store": {
            "name": "Лента"
        }
    },
    {
        "id_store": "1425",
        "name": "Лента",
        "location": {
            "region": "Москва и МО",
            "city": "Москва",
            "address": "пер. Колодезный, д. 3",
            "latitude": "55.798176",
            "longitude": "37.697442"
        },
        "chain_store": {
            "name": "Лента"
        }
    },
    {
        "id_store": "1466",
        "name": "Лента",
        "location": {
            "region": "Москва и МО",
            "city": "Москва",
            "address": "пл. Комсомольская, д. 2",
            "latitude": "55.773611",
            "longitude": "37.65567"
        },
        "chain_store": {
            "name": "Лента"
        }
    },
    {
        "id_store": "1414",
        "name": "Лента",
        "location": {
            "region": "Москва и МО",
            "city": "Москва",
            "address": "пл. Комсомольская, д. 6",
            "latitude": "55.775864",
            "longitude": "37.660413"
        },
        "chain_store": {
            "name": "Лента"
        }
    },
    {
        "id_store": "1413",
        "name": "Лента",
        "location": {
            "region": "Москва и МО",
            "city": "Москва",
            "address": "ул. Красная Пресня, д. 23, к. Б, стр. 1",
            "latitude": "55.761694",
            "longitude": "37.568772"
        },
        "chain_store": {
            "name": "Лента"
        }
    },
    {
        "id_store": "1415",
        "name": "Лента",
        "location": {
            "region": "Москва и МО",
            "city": "Москва",
            "address": "ул. Краснобогатырская, д. 23",
            "latitude": "55.811634",
            "longitude": "37.702805"
        },
        "chain_store": {
            "name": "Лента"
        }
    },
    {
        "id_store": "1384",
        "name": "Лента",
        "location": {
            "region": "Москва и МО",
            "city": "Москва",
            "address": "ул. Краснобогатырская, д. 13",
            "latitude": "55.815276",
            "longitude": "37.693956"
        },
        "chain_store": {
            "name": "Лента"
        }
    },
    {
        "id_store": "1419",
        "name": "Лента",
        "location": {
            "region": "Москва и МО",
            "city": "Москва",
            "address": "ул. Красного маяка, д. 9",
            "latitude": "55.611582",
            "longitude": "37.588701"
        },
        "chain_store": {
            "name": "Лента"
        }
    },
    {
        "id_store": "1314",
        "name": "Лента",
        "location": {
            "region": "Москва и МО",
            "city": "Москва",
            "address": "ул. Краснодарская, д. 57, к. 1",
            "latitude": "55.676642",
            "longitude": "37.767144"
        },
        "chain_store": {
            "name": "Лента"
        }
    },
    {
        "id_store": "0624",
        "name": "Лента",
        "location": {
            "region": "Москва и МО",
            "city": "Москва",
            "address": "ул. Красных Зорь, д. 19",
            "latitude": "55.7259",
            "longitude": "37.435782"
        },
        "chain_store": {
            "name": "Лента"
        }
    },
    {
        "id_store": "1324",
        "name": "Лента",
        "location": {
            "region": "Москва и МО",
            "city": "Москва",
            "address": "ш. Ленинградское, д. 58, к. 26",
            "latitude": "55.84255",
            "longitude": "37.484244"
        },
        "chain_store": {
            "name": "Лента"
        }
    },
    {
        "id_store": "1447",
        "name": "Лента",
        "location": {
            "region": "Москва и МО",
            "city": "Москва",
            "address": "пр. Ленинский, д. 74",
            "latitude": "55.683803",
            "longitude": "37.537883"
        },
        "chain_store": {
            "name": "Лента"
        }
    },
    {
        "id_store": "0182",
        "name": "Лента",
        "location": {
            "region": "Москва и МО",
            "city": "Москва",
            "address": "пр. Ленинский , 123, В",
            "latitude": "55.647808",
            "longitude": "37.480977"
        },
        "chain_store": {
            "name": "Лента"
        }
    },
    {
        "id_store": "1398",
        "name": "Лента",
        "location": {
            "region": "Москва и МО",
            "city": "Москва",
            "address": "ул. Лобненская, д. 14",
            "latitude": "55.893985",
            "longitude": "37.525091"
        },
        "chain_store": {
            "name": "Лента"
        }
    },
    {
        "id_store": "1437",
        "name": "Лента",
        "location": {
            "region": "Москва и МО",
            "city": "Москва",
            "address": "ул. Маршала Василевского, д. 17",
            "latitude": "55.808928",
            "longitude": "37.462326"
        },
        "chain_store": {
            "name": "Лента"
        }
    },
    {
        "id_store": "1335",
        "name": "Лента",
        "location": {
            "region": "Москва и МО",
            "city": "Москва",
            "address": "пр. Маршала Жукова, д. 42, к. 1",
            "latitude": "55.776801",
            "longitude": "37.470392"
        },
        "chain_store": {
            "name": "Лента"
        }
    },
    {
        "id_store": "1381",
        "name": "Лента",
        "location": {
            "region": "Москва и МО",
            "city": "Москва",
            "address": "ул. Менжинского, д. 32",
            "latitude": "55.869582",
            "longitude": "37.666728"
        },
        "chain_store": {
            "name": "Лента"
        }
    },
    {
        "id_store": "1440",
        "name": "Лента",
        "location": {
            "region": "Москва и МО",
            "city": "Москва",
            "address": "ул. Миклухо-Маклая, д. 36А",
            "latitude": "55.640116",
            "longitude": "37.53296"
        },
        "chain_store": {
            "name": "Лента"
        }
    },
    {
        "id_store": "1416",
        "name": "Лента",
        "location": {
            "region": "Москва и МО",
            "city": "Москва",
            "address": "ул. Митинская, д. 53",
            "latitude": "55.853405",
            "longitude": "37.351644"
        },
        "chain_store": {
            "name": "Лента"
        }
    },
    {
        "id_store": "1391",
        "name": "Лента",
        "location": {
            "region": "Москва и МО",
            "city": "Москва",
            "address": "ул. Михалковская, д. 6",
            "latitude": "55.837515",
            "longitude": "37.536859"
        },
        "chain_store": {
            "name": "Лента"
        }
    },
    {
        "id_store": "0639",
        "name": "Лента",
        "location": {
            "region": "Москва и МО",
            "city": "Москва",
            "address": "ш. Можайское, д. 39",
            "latitude": "55.717508",
            "longitude": "37.413503"
        },
        "chain_store": {
            "name": "Лента"
        }
    },
    {
        "id_store": "1451",
        "name": "Лента",
        "location": {
            "region": "Москва и МО",
            "city": "Москва",
            "address": "ул. Молостовых, д. 13, к. 1",
            "latitude": "55.755682",
            "longitude": "37.832997"
        },
        "chain_store": {
            "name": "Лента"
        }
    },
    {
        "id_store": "1351",
        "name": "Лента",
        "location": {
            "region": "Москва и МО",
            "city": "Москва",
            "address": "ул. Народного ополчения, д. 29, стр. 1",
            "latitude": "55.781585",
            "longitude": "37.479717"
        },
        "chain_store": {
            "name": "Лента"
        }
    },
    {
        "id_store": "1390",
        "name": "Лента",
        "location": {
            "region": "Москва и МО",
            "city": "Москва",
            "address": "ул. Народного Ополчения, д. 28, корп. 1",
            "latitude": "55.781448",
            "longitude": "37.481576"
        },
        "chain_store": {
            "name": "Лента"
        }
    },
    {
        "id_store": "1457",
        "name": "Лента",
        "location": {
            "region": "Москва и МО",
            "city": "Москва",
            "address": "пр. Нахимовский , д. 30/43",
            "latitude": "55.674514",
            "longitude": "37.574256"
        },
        "chain_store": {
            "name": "Лента"
        }
    },
    {
        "id_store": "3069",
        "name": "Лента",
        "location": {
            "region": "Москва и МО",
            "city": "Москва",
            "address": "ул. Новодмитровская, д. 2, к. 1",
            "latitude": "55.804941",
            "longitude": "37.589922"
        },
        "chain_store": {
            "name": "Лента"
        }
    },
    {
        "id_store": "1462",
        "name": "Лента",
        "location": {
            "region": "Москва и МО",
            "city": "Москва",
            "address": "ул. Новочеремушкинская, д. 53А",
            "latitude": "55.671696",
            "longitude": "37.569926"
        },
        "chain_store": {
            "name": "Лента"
        }
    },
    {
        "id_store": "1417",
        "name": "Лента",
        "location": {
            "region": "Москва и МО",
            "city": "Москва",
            "address": "б-р Новочеркасский, д. 41, к. 4",
            "latitude": "55.648174",
            "longitude": "37.736312"
        },
        "chain_store": {
            "name": "Лента"
        }
    },
    {
        "id_store": "1342",
        "name": "Лента",
        "location": {
            "region": "Москва и МО",
            "city": "Москва",
            "address": "ул. Обручева, д. 55, лит. А",
            "latitude": "55.650729",
            "longitude": "37.560197"
        },
        "chain_store": {
            "name": "Лента"
        }
    },
    {
        "id_store": "1453",
        "name": "Лента",
        "location": {
            "region": "Москва и МО",
            "city": "Москва",
            "address": "наб. Овчинниковская , 22/24, стр. 1",
            "latitude": "55.743497",
            "longitude": "37.633742"
        },
        "chain_store": {
            "name": "Лента"
        }
    },
    {
        "id_store": "0296",
        "name": "Лента",
        "location": {
            "region": "Москва и МО",
            "city": "Москва",
            "address": "б-р Ореховый, д. 22А",
            "latitude": "55.612193",
            "longitude": "37.732738"
        },
        "chain_store": {
            "name": "Лента"
        }
    },
    {
        "id_store": "3014",
        "name": "Лента",
        "location": {
            "region": "Москва и МО",
            "city": "Москва",
            "address": "ш. Остафьевское, д. 12, к.1",
            "latitude": "55.501982",
            "longitude": "37.522045"
        },
        "chain_store": {
            "name": "Лента"
        }
    },
    {
        "id_store": "1374",
        "name": "Лента",
        "location": {
            "region": "Москва и МО",
            "city": "Москва",
            "address": "ул. Отрадная, д. 7",
            "latitude": "55.857462",
            "longitude": "37.610098"
        },
        "chain_store": {
            "name": "Лента"
        }
    },
    {
        "id_store": "1380",
        "name": "Лента",
        "location": {
            "region": "Москва и МО",
            "city": "Москва",
            "address": "ул. Павла Корчагина, д. 3А",
            "latitude": "55.813829",
            "longitude": "37.656469"
        },
        "chain_store": {
            "name": "Лента"
        }
    },
    {
        "id_store": "1306",
        "name": "Лента",
        "location": {
            "region": "Москва и МО",
            "city": "Москва",
            "address": "ул. Перовская, д. 32, стр. 1",
            "latitude": "55.745215",
            "longitude": "37.776287"
        },
        "chain_store": {
            "name": "Лента"
        }
    },
    {
        "id_store": "1337",
        "name": "Лента",
        "location": {
            "region": "Москва и МО",
            "city": "Москва",
            "address": "ул. Подольских Курсантов, д. 10",
            "latitude": "55.608043",
            "longitude": "37.615973"
        },
        "chain_store": {
            "name": "Лента"
        }
    },
    {
        "id_store": "3090",
        "name": "Лента",
        "location": {
            "region": "Москва и МО",
            "city": "Москва",
            "address": "наб. Пресненская, д. 10, стр. 2",
            "latitude": "55.747622",
            "longitude": "37.535071"
        },
        "chain_store": {
            "name": "Лента"
        }
    },
    {
        "id_store": "1300",
        "name": "Лента",
        "location": {
            "region": "Москва и МО",
            "city": "Москва",
            "address": "ул. Прокатная, д. 2",
            "latitude": "55.7594",
            "longitude": "37.833878"
        },
        "chain_store": {
            "name": "Лента"
        }
    },
    {
        "id_store": "1327",
        "name": "Лента",
        "location": {
            "region": "Москва и МО",
            "city": "Москва",
            "address": "ш. Пятницкое, д. 21, к. 1",
            "latitude": "55.846305",
            "longitude": "37.373419"
        },
        "chain_store": {
            "name": "Лента"
        }
    },
    {
        "id_store": "1454",
        "name": "Лента",
        "location": {
            "region": "Москва и МО",
            "city": "Москва",
            "address": "ул.  Рогожский вал, д. 3",
            "latitude": "55.744992",
            "longitude": "37.679242"
        },
        "chain_store": {
            "name": "Лента"
        }
    },
    {
        "id_store": "1343",
        "name": "Лента",
        "location": {
            "region": "Москва и МО",
            "city": "Москва",
            "address": "проезд Россошанский, д. 8, к. 1",
            "latitude": "55.597108",
            "longitude": "37.604888"
        },
        "chain_store": {
            "name": "Лента"
        }
    },
    {
        "id_store": "1449",
        "name": "Лента",
        "location": {
            "region": "Москва и МО",
            "city": "Москва",
            "address": "пр. Рязанский, д. 75, к. 1",
            "latitude": "55.717781",
            "longitude": "37.79242"
        },
        "chain_store": {
            "name": "Лента"
        }
    },
    {
        "id_store": "1448",
        "name": "Лента",
        "location": {
            "region": "Москва и МО",
            "city": "Москва",
            "address": "б-р Северный, д. 10",
            "latitude": "55.86799",
            "longitude": "37.616908"
        },
        "chain_store": {
            "name": "Лента"
        }
    },
    {
        "id_store": "1464",
        "name": "Лента",
        "location": {
            "region": "Москва и МО",
            "city": "Москва",
            "address": "б-р Скандинавский, д. 1, стр. 4",
            "latitude": "55.568934",
            "longitude": "37.494925"
        },
        "chain_store": {
            "name": "Лента"
        }
    },
    {
        "id_store": "0651",
        "name": "Лента",
        "location": {
            "region": "Москва и МО",
            "city": "Москва",
            "address": "пл. Сокольническая, д. 4, к. 1-2",
            "latitude": "55.789836",
            "longitude": "37.678239"
        },
        "chain_store": {
            "name": "Лента"
        }
    },
    {
        "id_store": "1356",
        "name": "Лента",
        "location": {
            "region": "Москва и МО",
            "city": "Москва",
            "address": "ул. Сущевский вал, д. 9",
            "latitude": "55.792827",
            "longitude": "37.5933"
        },
        "chain_store": {
            "name": "Лента"
        }
    },
    {
        "id_store": "1375",
        "name": "Лента",
        "location": {
            "region": "Москва и МО",
            "city": "Москва",
            "address": "ул. Тайнинская, д. 20",
            "latitude": "55.882439",
            "longitude": "37.685916"
        },
        "chain_store": {
            "name": "Лента"
        }
    },
    {
        "id_store": "1323",
        "name": "Лента",
        "location": {
            "region": "Москва и МО",
            "city": "Москва",
            "address": "ул. Талалихина, д. 3",
            "latitude": "55.734243",
            "longitude": "37.67996"
        },
        "chain_store": {
            "name": "Лента"
        }
    },
    {
        "id_store": "0605",
        "name": "Лента",
        "location": {
            "region": "Москва и МО",
            "city": "Москва",
            "address": "ул. Твардовского, д. 2, к. 1",
            "latitude": "55.798925",
            "longitude": "37.389068"
        },
        "chain_store": {
            "name": "Лента"
        }
    },
    {
        "id_store": "1309",
        "name": "Лента",
        "location": {
            "region": "Москва и МО",
            "city": "Москва",
            "address": "б-р Тихорецкий , д. 12, корп. 1",
            "latitude": "55.677702",
            "longitude": "37.774463"
        },
        "chain_store": {
            "name": "Лента"
        }
    },
    {
        "id_store": "0607",
        "name": "Лента",
        "location": {
            "region": "Москва и МО",
            "city": "Москва",
            "address": "ул. Тушинская, д. 17",
            "latitude": "55.826714",
            "longitude": "37.444958"
        },
        "chain_store": {
            "name": "Лента"
        }
    },
    {
        "id_store": "1329",
        "name": "Лента",
        "location": {
            "region": "Москва и МО",
            "city": "Москва",
            "address": "ул. Уральская, д. 3",
            "latitude": "55.8128023",
            "longitude": "37.7971713"
        },
        "chain_store": {
            "name": "Лента"
        }
    },
    {
        "id_store": "1424",
        "name": "Лента",
        "location": {
            "region": "Москва и МО",
            "city": "Москва",
            "address": "ул. Усачева, д. 35, стр. 1",
            "latitude": "55.722685",
            "longitude": "37.560826"
        },
        "chain_store": {
            "name": "Лента"
        }
    },
    {
        "id_store": "0503",
        "name": "Лента",
        "location": {
            "region": "Москва и МО",
            "city": "Москва",
            "address": "б-р Филевский, д. 10",
            "latitude": "55.764065",
            "longitude": "37.48738"
        },
        "chain_store": {
            "name": "Лента"
        }
    },
    {
        "id_store": "1363",
        "name": "Лента",
        "location": {
            "region": "Москва и МО",
            "city": "Москва",
            "address": "ул. Хабаровская, д. 12/23",
            "latitude": "55.82177",
            "longitude": "37.826763"
        },
        "chain_store": {
            "name": "Лента"
        }
    },
    {
        "id_store": "1360",
        "name": "Лента",
        "location": {
            "region": "Москва и МО",
            "city": "Москва",
            "address": "ул. Харьковская, д. 2",
            "latitude": "55.587845",
            "longitude": "37.652966"
        },
        "chain_store": {
            "name": "Лента"
        }
    },
    {
        "id_store": "3046",
        "name": "Лента",
        "location": {
            "region": "Москва и МО",
            "city": "Москва",
            "address": "ш. Хорошевское, д. 38, стр. 5",
            "latitude": "55.77794",
            "longitude": "37.536077"
        },
        "chain_store": {
            "name": "Лента"
        }
    },
    {
        "id_store": "1336",
        "name": "Лента",
        "location": {
            "region": "Москва и МО",
            "city": "Москва",
            "address": "ул. Хромова, д. 3",
            "latitude": "55.799871",
            "longitude": "37.716055"
        },
        "chain_store": {
            "name": "Лента"
        }
    },
    {
        "id_store": "0656",
        "name": "Лента",
        "location": {
            "region": "Москва и МО",
            "city": "Москва",
            "address": "б-р Чонгарский, д. 7",
            "latitude": "55.651379",
            "longitude": "37.612389"
        },
        "chain_store": {
            "name": "Лента"
        }
    },
    {
        "id_store": "1402",
        "name": "Лента",
        "location": {
            "region": "Москва и МО",
            "city": "Москва",
            "address": "ул. Чусовская, д. 13",
            "latitude": "55.815812",
            "longitude": "37.811105"
        },
        "chain_store": {
            "name": "Лента"
        }
    },
    {
        "id_store": "1370",
        "name": "Лента",
        "location": {
            "region": "Москва и МО",
            "city": "Москва",
            "address": "ул. Широкая, д. 31, корп. 5",
            "latitude": "55.887604",
            "longitude": "37.67846"
        },
        "chain_store": {
            "name": "Лента"
        }
    },
    {
        "id_store": "1331",
        "name": "Лента",
        "location": {
            "region": "Москва и МО",
            "city": "Москва",
            "address": "ул. Широкая, д. 12Б",
            "latitude": "55.886731",
            "longitude": "37.65947"
        },
        "chain_store": {
            "name": "Лента"
        }
    },
    {
        "id_store": "3028",
        "name": "Лента",
        "location": {
            "region": "Москва и МО",
            "city": "Москва",
            "address": "ш. Щёлковское, д. 92, к. 8",
            "latitude": "55.809479",
            "longitude": "37.822766"
        },
        "chain_store": {
            "name": "Лента"
        }
    },
    {
        "id_store": "0675",
        "name": "Лента",
        "location": {
            "region": "Москва и МО",
            "city": "Москва",
            "address": "ул. Юных Ленинцев, д. 52",
            "latitude": "55.699781",
            "longitude": "37.765381"
        },
        "chain_store": {
            "name": "Лента"
        }
    },
    {
        "id_store": "1362",
        "name": "Лента",
        "location": {
            "region": "Москва и МО",
            "city": "Москва",
            "address": "б-р Яна Райниса, д. 18, к. 1",
            "latitude": "55.850211",
            "longitude": "37.417994"
        },
        "chain_store": {
            "name": "Лента"
        }
    },
    {
        "id_store": "1388",
        "name": "Лента",
        "location": {
            "region": "Москва и МО",
            "city": "Москва",
            "address": "б-р Яна Райниса, д. 41",
            "latitude": "55.850131",
            "longitude": "37.411373"
        },
        "chain_store": {
            "name": "Лента"
        }
    },
    {
        "id_store": "0304",
        "name": "Лента",
        "location": {
            "region": "Москва и МО",
            "city": "Москва",
            "address": "ш. Ярославское, д. 54",
            "latitude": "55.86566",
            "longitude": "37.705042"
        },
        "chain_store": {
            "name": "Лента"
        }
    },
    {
        "id_store": "1376",
        "name": "Лента",
        "location": {
            "region": "Москва и МО",
            "city": "Москва",
            "address": "пр-д Ясный, д. 13, стр. 2",
            "latitude": "55.874713",
            "longitude": "37.621004"
        },
        "chain_store": {
            "name": "Лента"
        }
    },
    {
        "id_store": "3051",
        "name": "Лента",
        "location": {
            "region": "Москва и МО",
            "city": "Москва",
            "address": "дер. Акишево, д. 92Б",
            "latitude": "56.092195",
            "longitude": "37.364912"
        },
        "chain_store": {
            "name": "Лента"
        }
    },
    {
        "id_store": "0643",
        "name": "Лента",
        "location": {
            "region": "Москва и МО",
            "city": "Москва",
            "address": "г. Апрелевка, ул. Августовская, д. 14",
            "latitude": "55.54957",
            "longitude": "37.068241"
        },
        "chain_store": {
            "name": "Лента"
        }
    },
    {
        "id_store": "3044",
        "name": "Лента",
        "location": {
            "region": "Москва и МО",
            "city": "Москва",
            "address": "г. Апрелевка, ул. Некрасова, д. 27, к. 1",
            "latitude": "55.533883",
            "longitude": "37.055703"
        },
        "chain_store": {
            "name": "Лента"
        }
    },
    {
        "id_store": "3063",
        "name": "Лента",
        "location": {
            "region": "Москва и МО",
            "city": "Москва",
            "address": "г. Балашиха, д. Федурново, ул. Авиарембаза, д. 12",
            "latitude": "55.754659",
            "longitude": "38.058978"
        },
        "chain_store": {
            "name": "Лента"
        }
    },
    {
        "id_store": "1412",
        "name": "Лента",
        "location": {
            "region": "Москва и МО",
            "city": "Москва",
            "address": "г. Балашиха, ш. Балашихинское, д. 10",
            "latitude": "55.822645",
            "longitude": "37.932791"
        },
        "chain_store": {
            "name": "Лента"
        }
    },
    {
        "id_store": "0616",
        "name": "Лента",
        "location": {
            "region": "Москва и МО",
            "city": "Москва",
            "address": "г. Балашиха, ул. Гагарина, д. 7/4",
            "latitude": "55.757372",
            "longitude": "38.087169"
        },
        "chain_store": {
            "name": "Лента"
        }
    },
    {
        "id_store": "2504",
        "name": "Лента",
        "location": {
            "region": "Москва и МО",
            "city": "Москва",
            "address": "г.  Балашиха, мкр-н  Саввино, ул. Пригородная, стр. 90",
            "latitude": "55.724531",
            "longitude": "37.994"
        },
        "chain_store": {
            "name": "Лента"
        }
    },
    {
        "id_store": "0128",
        "name": "Лента",
        "location": {
            "region": "Москва и МО",
            "city": "Москва",
            "address": "г.  Балашиха, мкр-н  Саввино, ул. Пригородная, стр. 90",
            "latitude": "55.724531",
            "longitude": "37.993615"
        },
        "chain_store": {
            "name": "Лента"
        }
    },
    {
        "id_store": "0625",
        "name": "Лента",
        "location": {
            "region": "Москва и МО",
            "city": "Москва",
            "address": "г. Балашиха, ул. Свердлова, д. 20, к. 1",
            "latitude": "55.822894",
            "longitude": "37.970268"
        },
        "chain_store": {
            "name": "Лента"
        }
    },
    {
        "id_store": "0027",
        "name": "Лента",
        "location": {
            "region": "Москва и МО",
            "city": "Москва",
            "address": "г.  Балашиха, ш. Энтузиастов, д. 80",
            "latitude": "55.798105",
            "longitude": "37.98601"
        },
        "chain_store": {
            "name": "Лента"
        }
    },
    {
        "id_store": "0669",
        "name": "Лента",
        "location": {
            "region": "Москва и МО",
            "city": "Москва",
            "address": "г. Балашиха, ш. Энтузиастов, д. 11/4",
            "latitude": "55.790661",
            "longitude": "37.886447"
        },
        "chain_store": {
            "name": "Лента"
        }
    },
    {
        "id_store": "1330",
        "name": "Лента",
        "location": {
            "region": "Москва и МО",
            "city": "Москва",
            "address": "г. Балашиха, ш. Энтузиастов, д. 1Б",
            "latitude": "55.794315",
            "longitude": "37.926476"
        },
        "chain_store": {
            "name": "Лента"
        }
    },
    {
        "id_store": "0661",
        "name": "Лента",
        "location": {
            "region": "Москва и МО",
            "city": "Москва",
            "address": "г. Видное, ул. Березовая, д. 1А",
            "latitude": "55.545869",
            "longitude": "37.721094"
        },
        "chain_store": {
            "name": "Лента"
        }
    },
    {
        "id_store": "3039",
        "name": "Лента",
        "location": {
            "region": "Москва и МО",
            "city": "Москва",
            "address": "г. Видное, п. Расторгуево, ул. Булатниковская, д. 1Ю",
            "latitude": "55.547952",
            "longitude": "37.685198"
        },
        "chain_store": {
            "name": "Лента"
        }
    },
    {
        "id_store": "0201",
        "name": "Лента",
        "location": {
            "region": "Москва и МО",
            "city": "Москва",
            "address": "г.  Видное, ул. Старо-Нагорная, д. 20",
            "latitude": "55.566616",
            "longitude": "37.690584"
        },
        "chain_store": {
            "name": "Лента"
        }
    },
    {
        "id_store": "3030",
        "name": "Лента",
        "location": {
            "region": "Москва и МО",
            "city": "Москва",
            "address": "г. Воскресенск, г. Белоозерский, ул. Коммунальная, д. 12",
            "latitude": "55.456804",
            "longitude": "38.444682"
        },
        "chain_store": {
            "name": "Лента"
        }
    },
    {
        "id_store": "2503",
        "name": "Лента",
        "location": {
            "region": "Москва и МО",
            "city": "Москва",
            "address": "п.  Воскресенское, пр-д Чечёрский, д. 51",
            "latitude": "55.525",
            "longitude": "37.518"
        },
        "chain_store": {
            "name": "Лента"
        }
    },
    {
        "id_store": "0183",
        "name": "Лента",
        "location": {
            "region": "Москва и МО",
            "city": "Москва",
            "address": "п.  Воскресенское, пр-д Чечёрский, д. 51",
            "latitude": "55.524095",
            "longitude": "37.51798"
        },
        "chain_store": {
            "name": "Лента"
        }
    },
    {
        "id_store": "0292",
        "name": "Лента",
        "location": {
            "region": "Москва и МО",
            "city": "Москва",
            "address": "д. Говорово, МКАД 47-й км, стр. 1",
            "latitude": "55.658774",
            "longitude": "37.430777"
        },
        "chain_store": {
            "name": "Лента"
        }
    },
    {
        "id_store": "0169",
        "name": "Лента",
        "location": {
            "region": "Москва и МО",
            "city": "Москва",
            "address": "г. Дмитров, ул. Бирлово Поле, д. 1",
            "latitude": "56.343064",
            "longitude": "37.550253"
        },
        "chain_store": {
            "name": "Лента"
        }
    },
    {
        "id_store": "1409",
        "name": "Лента",
        "location": {
            "region": "Москва и МО",
            "city": "Москва",
            "address": "г. Дмитров, ул. Советская, д. 5",
            "latitude": "56.341019",
            "longitude": "37.517734"
        },
        "chain_store": {
            "name": "Лента"
        }
    },
    {
        "id_store": "3088",
        "name": "Лента",
        "location": {
            "region": "Москва и МО",
            "city": "Москва",
            "address": "г.о. Дмитровский, с. Семеновское, c. 113",
            "latitude": "56.323942",
            "longitude": "37.130973"
        },
        "chain_store": {
            "name": "Лента"
        }
    },
    {
        "id_store": "3033",
        "name": "Лента",
        "location": {
            "region": "Москва и МО",
            "city": "Москва",
            "address": "г.о. Дмитровский, д. Целеево, ул. имени В. И. Барздо, д. 20",
            "latitude": "56.243034",
            "longitude": "37.50001"
        },
        "chain_store": {
            "name": "Лента"
        }
    },
    {
        "id_store": "0665",
        "name": "Лента",
        "location": {
            "region": "Москва и МО",
            "city": "Москва",
            "address": "г. Долгопрудный, пр. Лихачёвский, д. 64",
            "latitude": "55.931114",
            "longitude": "37.494283"
        },
        "chain_store": {
            "name": "Лента"
        }
    },
    {
        "id_store": "0648",
        "name": "Лента",
        "location": {
            "region": "Москва и МО",
            "city": "Москва",
            "address": "г. Долгопрудный, ул. Московская, д. 58, к. 2",
            "latitude": "55.960989",
            "longitude": "37.526818"
        },
        "chain_store": {
            "name": "Лента"
        }
    },
    {
        "id_store": "0196",
        "name": "Лента",
        "location": {
            "region": "Москва и МО",
            "city": "Москва",
            "address": "г. Домодедово, ул. Кирова, стр. 28",
            "latitude": "55.431477",
            "longitude": "37.751577"
        },
        "chain_store": {
            "name": "Лента"
        }
    },
    {
        "id_store": "1357",
        "name": "Лента",
        "location": {
            "region": "Москва и МО",
            "city": "Москва",
            "address": "г. Домодедово, ул. Лунная, д. 17, к. 1-3",
            "latitude": "55.423341",
            "longitude": "37.756829"
        },
        "chain_store": {
            "name": "Лента"
        }
    },
    {
        "id_store": "0641",
        "name": "Лента",
        "location": {
            "region": "Москва и МО",
            "city": "Москва",
            "address": "г. Егорьевск, ул. Советская, д. 157",
            "latitude": "55.377926",
            "longitude": "39.044899"
        },
        "chain_store": {
            "name": "Лента"
        }
    },
    {
        "id_store": "0609",
        "name": "Лента",
        "location": {
            "region": "Москва и МО",
            "city": "Москва",
            "address": "г. Егорьевск, ул. Советская, д. 4",
            "latitude": "55.393759",
            "longitude": "39.019148"
        },
        "chain_store": {
            "name": "Лента"
        }
    },
    {
        "id_store": "1322",
        "name": "Лента",
        "location": {
            "region": "Москва и МО",
            "city": "Москва",
            "address": "г. Жуковский, ул. Лацкова, д. 3",
            "latitude": "55.607809",
            "longitude": "38.07698"
        },
        "chain_store": {
            "name": "Лента"
        }
    },
    {
        "id_store": "0613",
        "name": "Лента",
        "location": {
            "region": "Москва и МО",
            "city": "Москва",
            "address": "г. Зеленоград, ул. Гоголя, д. 2",
            "latitude": "55.983308",
            "longitude": "37.174056"
        },
        "chain_store": {
            "name": "Лента"
        }
    },
    {
        "id_store": "1395",
        "name": "Лента",
        "location": {
            "region": "Москва и МО",
            "city": "Москва",
            "address": "г. Зеленоград, ул. Гоголя, к. 1006, лит. А",
            "latitude": "55.984058",
            "longitude": "37.176059"
        },
        "chain_store": {
            "name": "Лента"
        }
    },
    {
        "id_store": "0168",
        "name": "Лента",
        "location": {
            "region": "Москва и МО",
            "city": "Москва",
            "address": "г. Истра, ул. Московская, д. 61",
            "latitude": "55.905171",
            "longitude": "36.897174"
        },
        "chain_store": {
            "name": "Лента"
        }
    },
    {
        "id_store": "3168",
        "name": "Лента",
        "location": {
            "region": "Москва и МО",
            "city": "Москва",
            "address": "г. Истра, ул. Урицкого, д. 120",
            "latitude": "55.930224",
            "longitude": "36.869568"
        },
        "chain_store": {
            "name": "Лента"
        }
    },
    {
        "id_store": "3065",
        "name": "Лента",
        "location": {
            "region": "Москва и МО",
            "city": "Москва",
            "address": "г. Кашира, мкр. Ожерелье, ул. Ленина, д. 3, лит. А",
            "latitude": "54.0789628",
            "longitude": "38.253894"
        },
        "chain_store": {
            "name": "Лента"
        }
    },
    {
        "id_store": "0260",
        "name": "Лента",
        "location": {
            "region": "Москва и МО",
            "city": "Москва",
            "address": "г. Коломна, ул. Астахова, д. 4, к. 4",
            "latitude": "55.06538",
            "longitude": "38.74642"
        },
        "chain_store": {
            "name": "Лента"
        }
    },
    {
        "id_store": "1365",
        "name": "Лента",
        "location": {
            "region": "Москва и МО",
            "city": "Москва",
            "address": "г. Королев, пр. Королева, д. 5, лит. Д",
            "latitude": "55.921824",
            "longitude": "37.843795"
        },
        "chain_store": {
            "name": "Лента"
        }
    },
    {
        "id_store": "0647",
        "name": "Лента",
        "location": {
            "region": "Москва и МО",
            "city": "Москва",
            "address": "г. Королев, ул. Пионерская, д. 19, к. 3",
            "latitude": "55.914476",
            "longitude": "37.807073"
        },
        "chain_store": {
            "name": "Лента"
        }
    },
    {
        "id_store": "3043",
        "name": "Лента",
        "location": {
            "region": "Москва и МО",
            "city": "Москва",
            "address": "г. Королев, ул. Степана Разина, д. 8",
            "latitude": "55.92033",
            "longitude": "37.846409"
        },
        "chain_store": {
            "name": "Лента"
        }
    },
    {
        "id_store": "1459",
        "name": "Лента",
        "location": {
            "region": "Москва и МО",
            "city": "Москва",
            "address": "г. Красногорск, ул. Б.Воскресенская , д. 1",
            "latitude": "55.816541",
            "longitude": "37.342266"
        },
        "chain_store": {
            "name": "Лента"
        }
    },
    {
        "id_store": "0628",
        "name": "Лента",
        "location": {
            "region": "Москва и МО",
            "city": "Москва",
            "address": "г. Красногорск, ш. Ильинское, д. 14, к. 1",
            "latitude": "55.804077",
            "longitude": "37.322664"
        },
        "chain_store": {
            "name": "Лента"
        }
    },
    {
        "id_store": "0682",
        "name": "Лента",
        "location": {
            "region": "Москва и МО",
            "city": "Москва",
            "address": "г. Красногорск, б-р Красногорский, д. 4, к. 1",
            "latitude": "55.816748",
            "longitude": "37.359307"
        },
        "chain_store": {
            "name": "Лента"
        }
    },
    {
        "id_store": "1458",
        "name": "Лента",
        "location": {
            "region": "Москва и МО",
            "city": "Москва",
            "address": "г. Красногорск, ул. Ленина, д. 44А",
            "latitude": "55.835907",
            "longitude": "37.293164"
        },
        "chain_store": {
            "name": "Лента"
        }
    },
    {
        "id_store": "0667",
        "name": "Лента",
        "location": {
            "region": "Москва и МО",
            "city": "Москва",
            "address": "г. Красногорск, рп. Нахабино, ул. Школьная, д. 2",
            "latitude": "55.841807",
            "longitude": "37.145804"
        },
        "chain_store": {
            "name": "Лента"
        }
    },
    {
        "id_store": "0664",
        "name": "Лента",
        "location": {
            "region": "Москва и МО",
            "city": "Москва",
            "address": "д. Лопатино, б-р Солнечный, д. 2",
            "latitude": "55.533963",
            "longitude": "37.645679"
        },
        "chain_store": {
            "name": "Лента"
        }
    },
    {
        "id_store": "0246",
        "name": "Лента",
        "location": {
            "region": "Москва и МО",
            "city": "Москва",
            "address": "г. Луховицы, ул. Пушкина, д. 125, лит. Б",
            "latitude": "54.966121",
            "longitude": "39.027649"
        },
        "chain_store": {
            "name": "Лента"
        }
    },
    {
        "id_store": "0649",
        "name": "Лента",
        "location": {
            "region": "Москва и МО",
            "city": "Москва",
            "address": "г. Люберцы, ул. 3-е Почтовое отделение, д. 53А",
            "latitude": "55.682237",
            "longitude": "37.867975"
        },
        "chain_store": {
            "name": "Лента"
        }
    },
    {
        "id_store": "1403",
        "name": "Лента",
        "location": {
            "region": "Москва и МО",
            "city": "Москва",
            "address": "г. Люберцы, ул. 3-е Почтовое отделение, д. 100",
            "latitude": "55.683757",
            "longitude": "37.865831"
        },
        "chain_store": {
            "name": "Лента"
        }
    },
    {
        "id_store": "1434",
        "name": "Лента",
        "location": {
            "region": "Москва и МО",
            "city": "Москва",
            "address": "г. Люберцы, ул. Кирова, д. 4",
            "latitude": "55.69041",
            "longitude": "37.861986"
        },
        "chain_store": {
            "name": "Лента"
        }
    },
    {
        "id_store": "3102",
        "name": "Лента",
        "location": {
            "region": "Москва и МО",
            "city": "Москва",
            "address": "п. Малаховка, ш. Красковское, д. 1А, стр. 1",
            "latitude": "55.646614",
            "longitude": "38.003498"
        },
        "chain_store": {
            "name": "Лента"
        }
    },
    {
        "id_store": "3038",
        "name": "Лента",
        "location": {
            "region": "Москва и МО",
            "city": "Москва",
            "address": "г. Московский, 1-й микрорайон, д. 158",
            "latitude": "55.597938",
            "longitude": "37.34664"
        },
        "chain_store": {
            "name": "Лента"
        }
    },
    {
        "id_store": "1431",
        "name": "Лента",
        "location": {
            "region": "Москва и МО",
            "city": "Москва",
            "address": "г. Московский, пос. Московский, ул. Московская, д. 3А",
            "latitude": "55.593461",
            "longitude": "37.367652"
        },
        "chain_store": {
            "name": "Лента"
        }
    },
    {
        "id_store": "0623",
        "name": "Лента",
        "location": {
            "region": "Москва и МО",
            "city": "Москва",
            "address": "г. Мытищи, ул. 1-я Пролетарская, стр. 12Б",
            "latitude": "55.923218",
            "longitude": "37.769636"
        },
        "chain_store": {
            "name": "Лента"
        }
    },
    {
        "id_store": "0632",
        "name": "Лента",
        "location": {
            "region": "Москва и МО",
            "city": "Москва",
            "address": "г. Мытищи, ул. 3-я Крестьянская, д. 23",
            "latitude": "55.892314",
            "longitude": "37.714905"
        },
        "chain_store": {
            "name": "Лента"
        }
    },
    {
        "id_store": "3012",
        "name": "Лента",
        "location": {
            "region": "Москва и МО",
            "city": "Москва",
            "address": "г.о. Мытищи, д. Пирогово, ул. Центральная, стр. 93",
            "latitude": "55.984995",
            "longitude": "37.726682"
        },
        "chain_store": {
            "name": "Лента"
        }
    },
    {
        "id_store": "0277",
        "name": "Лента",
        "location": {
            "region": "Москва и МО",
            "city": "Москва",
            "address": "г. Наро-Фоминск, пл. Свободы, д. 2",
            "latitude": "55.388614",
            "longitude": "36.735335"
        },
        "chain_store": {
            "name": "Лента"
        }
    },
    {
        "id_store": "0615",
        "name": "Лента",
        "location": {
            "region": "Москва и МО",
            "city": "Москва",
            "address": "г. Ногинск, ул. 2-я Глуховская, д. 8, стр. 1-2",
            "latitude": "55.869571",
            "longitude": "38.429821"
        },
        "chain_store": {
            "name": "Лента"
        }
    },
    {
        "id_store": "0621",
        "name": "Лента",
        "location": {
            "region": "Москва и МО",
            "city": "Москва",
            "address": "г. Ногинск, ул. Ильича, д. 6",
            "latitude": "55.87657",
            "longitude": "38.470981"
        },
        "chain_store": {
            "name": "Лента"
        }
    },
    {
        "id_store": "0627",
        "name": "Лента",
        "location": {
            "region": "Москва и МО",
            "city": "Москва",
            "address": "г. Одинцово, ул. Говорова, д. 24Б",
            "latitude": "55.688517",
            "longitude": "37.293489"
        },
        "chain_store": {
            "name": "Лента"
        }
    },
    {
        "id_store": "0660",
        "name": "Лента",
        "location": {
            "region": "Москва и МО",
            "city": "Москва",
            "address": "г. Одинцово, ш. Можайское, д. 1А",
            "latitude": "55.669104",
            "longitude": "37.256874"
        },
        "chain_store": {
            "name": "Лента"
        }
    },
    {
        "id_store": "1435",
        "name": "Лента",
        "location": {
            "region": "Москва и МО",
            "city": "Москва",
            "address": "г. Одинцово, ш. Можайское, д. 71",
            "latitude": "55.6779",
            "longitude": "37.281234"
        },
        "chain_store": {
            "name": "Лента"
        }
    },
    {
        "id_store": "1396",
        "name": "Лента",
        "location": {
            "region": "Москва и МО",
            "city": "Москва",
            "address": "г. Одинцово, ш. Можайское, д. 121",
            "latitude": "55.68192",
            "longitude": "37.290424"
        },
        "chain_store": {
            "name": "Лента"
        }
    },
    {
        "id_store": "3002",
        "name": "Лента",
        "location": {
            "region": "Москва и МО",
            "city": "Москва",
            "address": "г. Одинцово, ул. Северная , д. 13",
            "latitude": "55.681833",
            "longitude": "37.248904"
        },
        "chain_store": {
            "name": "Лента"
        }
    },
    {
        "id_store": "0670",
        "name": "Лента",
        "location": {
            "region": "Москва и МО",
            "city": "Москва",
            "address": "г. Одинцово, п. Трёхгорка, ул. Трёхгорная, д. 6",
            "latitude": "55.697392",
            "longitude": "37.337163"
        },
        "chain_store": {
            "name": "Лента"
        }
    },
    {
        "id_store": "1346",
        "name": "Лента",
        "location": {
            "region": "Москва и МО",
            "city": "Москва",
            "address": "Олимпийская деревня, пр. Мичуринский, д. 4, к. 3",
            "latitude": "55.675352",
            "longitude": "37.470662"
        },
        "chain_store": {
            "name": "Лента"
        }
    },
    {
        "id_store": "0603",
        "name": "Лента",
        "location": {
            "region": "Москва и МО",
            "city": "Москва",
            "address": "г. Орехово-Зуево, ул. Ленина, д. 44А",
            "latitude": "55.802104",
            "longitude": "38.981188"
        },
        "chain_store": {
            "name": "Лента"
        }
    },
    {
        "id_store": "3162",
        "name": "Лента",
        "location": {
            "region": "Москва и МО",
            "city": "Москва",
            "address": "г.о. Орехово-Зуево, д. Анциферово, ул. Лесная, д. 158, к. 1",
            "latitude": "55.549607",
            "longitude": "38.805729"
        },
        "chain_store": {
            "name": "Лента"
        }
    },
    {
        "id_store": "1410",
        "name": "Лента",
        "location": {
            "region": "Москва и МО",
            "city": "Москва",
            "address": "г. Пушкино, ул. Чехова, д. 12",
            "latitude": "56.008706",
            "longitude": "37.851907"
        },
        "chain_store": {
            "name": "Лента"
        }
    },
    {
        "id_store": "3134",
        "name": "Лента",
        "location": {
            "region": "Москва и МО",
            "city": "Москва",
            "address": "г.о. Раменский, с. Заворово, стр. 80а",
            "latitude": "55.340584",
            "longitude": "38.221896"
        },
        "chain_store": {
            "name": "Лента"
        }
    },
    {
        "id_store": "3158",
        "name": "Лента",
        "location": {
            "region": "Москва и МО",
            "city": "Москва",
            "address": "г.о. Раменский, д. Трошково, ул. Шоссейная, стр. 45б",
            "latitude": "55.605119",
            "longitude": "38.421259"
        },
        "chain_store": {
            "name": "Лента"
        }
    },
    {
        "id_store": "3093",
        "name": "Лента",
        "location": {
            "region": "Москва и МО",
            "city": "Москва",
            "address": "г. Раменское, ул. Десантная, стр. 44, лит. В",
            "latitude": "55.567901",
            "longitude": "38.196087"
        },
        "chain_store": {
            "name": "Лента"
        }
    },
    {
        "id_store": "0298",
        "name": "Лента",
        "location": {
            "region": "Москва и МО",
            "city": "Москва",
            "address": "г. Реутов, МКАД 2-й км, д. 2",
            "latitude": "55.76455",
            "longitude": "37.844951"
        },
        "chain_store": {
            "name": "Лента"
        }
    },
    {
        "id_store": "0608",
        "name": "Лента",
        "location": {
            "region": "Москва и МО",
            "city": "Москва",
            "address": "г. Реутов, пр. Юбилейный, д. 2А",
            "latitude": "55.74517",
            "longitude": "37.852944"
        },
        "chain_store": {
            "name": "Лента"
        }
    },
    {
        "id_store": "3018",
        "name": "Лента",
        "location": {
            "region": "Москва и МО",
            "city": "Москва",
            "address": "г. Руза, Территория Микрорайон, д. 9а",
            "latitude": "55.709328",
            "longitude": "36.203516"
        },
        "chain_store": {
            "name": "Лента"
        }
    },
    {
        "id_store": "3091",
        "name": "Лента",
        "location": {
            "region": "Москва и МО",
            "city": "Москва",
            "address": "г.о. Рузский, п. Дорохово, ул. Невкипелого, д. 6а",
            "latitude": "55.546368",
            "longitude": "36.369435"
        },
        "chain_store": {
            "name": "Лента"
        }
    },
    {
        "id_store": "0636",
        "name": "Лента",
        "location": {
            "region": "Москва и МО",
            "city": "Москва",
            "address": "г.о. Рузский, рп. Тучково, ул. Партизан, д. 6",
            "latitude": "55.598217",
            "longitude": "36.46984"
        },
        "chain_store": {
            "name": "Лента"
        }
    },
    {
        "id_store": "0642",
        "name": "Лента",
        "location": {
            "region": "Москва и МО",
            "city": "Москва",
            "address": "р.п.  Селятино, ул. Больничная, д. 10",
            "latitude": "55.512508",
            "longitude": "36.975337"
        },
        "chain_store": {
            "name": "Лента"
        }
    },
    {
        "id_store": "3024",
        "name": "Лента",
        "location": {
            "region": "Москва и МО",
            "city": "Москва",
            "address": "г. Селятино, ул. Спортивная, д. 1",
            "latitude": "55.519656",
            "longitude": "36.986829"
        },
        "chain_store": {
            "name": "Лента"
        }
    },
    {
        "id_store": "0130",
        "name": "Лента",
        "location": {
            "region": "Москва и МО",
            "city": "Москва",
            "address": "г. Сергиев Посад, ш. Новоугличское, д. 85",
            "latitude": "56.340258",
            "longitude": "38.124718"
        },
        "chain_store": {
            "name": "Лента"
        }
    },
    {
        "id_store": "0175",
        "name": "Лента",
        "location": {
            "region": "Москва и МО",
            "city": "Москва",
            "address": "г.  Серпухов, д. Борисово, д. 111А",
            "latitude": "54.90982",
            "longitude": "37.482358"
        },
        "chain_store": {
            "name": "Лента"
        }
    },
    {
        "id_store": "0630",
        "name": "Лента",
        "location": {
            "region": "Москва и МО",
            "city": "Москва",
            "address": "г. Серпухов, ул. Ворошилова, д. 139",
            "latitude": "54.923967",
            "longitude": "37.441736"
        },
        "chain_store": {
            "name": "Лента"
        }
    },
    {
        "id_store": "3040",
        "name": "Лента",
        "location": {
            "region": "Москва и МО",
            "city": "Москва",
            "address": "г. Солнечногорск, ул. Банковская, д. 17/1",
            "latitude": "56.188795",
            "longitude": "36.981255"
        },
        "chain_store": {
            "name": "Лента"
        }
    },
    {
        "id_store": "0150",
        "name": "Лента",
        "location": {
            "region": "Москва и МО",
            "city": "Москва",
            "address": "с.  Тарасовка, ул. Б. Тарасовская, влд. 2",
            "latitude": "55.968277",
            "longitude": "37.847536"
        },
        "chain_store": {
            "name": "Лента"
        }
    },
    {
        "id_store": "2502",
        "name": "Лента",
        "location": {
            "region": "Москва и МО",
            "city": "Москва",
            "address": "г. Троицк, Калужское ш., 42-й км, д. 6",
            "latitude": "55.455387",
            "longitude": "37.29"
        },
        "chain_store": {
            "name": "Лента"
        }
    },
    {
        "id_store": "0142",
        "name": "Лента",
        "location": {
            "region": "Москва и МО",
            "city": "Москва",
            "address": "г. Троицк, Калужское ш., 42-й км, д. 6",
            "latitude": "55.455387",
            "longitude": "37.289272"
        },
        "chain_store": {
            "name": "Лента"
        }
    },
    {
        "id_store": "0612",
        "name": "Лента",
        "location": {
            "region": "Москва и МО",
            "city": "Москва",
            "address": "г. Фрязино, ул. 60 Лет СССР, д. 10",
            "latitude": "55.94926",
            "longitude": "38.060185"
        },
        "chain_store": {
            "name": "Лента"
        }
    },
    {
        "id_store": "0116",
        "name": "Лента",
        "location": {
            "region": "Москва и МО",
            "city": "Москва",
            "address": "г.о. Химки, д. Елино, стр. 20/2",
            "latitude": "55.990077",
            "longitude": "37.273191"
        },
        "chain_store": {
            "name": "Лента"
        }
    },
    {
        "id_store": "1463",
        "name": "Лента",
        "location": {
            "region": "Москва и МО",
            "city": "Москва",
            "address": "г. Химки, ул. Мельникова, д. 27, к. 1",
            "latitude": "55.907364",
            "longitude": "37.395454"
        },
        "chain_store": {
            "name": "Лента"
        }
    },
    {
        "id_store": "1344",
        "name": "Лента",
        "location": {
            "region": "Москва и МО",
            "city": "Москва",
            "address": "г. Химки, пр. Юбилейный , д. 88",
            "latitude": "55.89818",
            "longitude": "37.41034"
        },
        "chain_store": {
            "name": "Лента"
        }
    },
    {
        "id_store": "3025",
        "name": "Лента",
        "location": {
            "region": "Москва и МО",
            "city": "Москва",
            "address": "г. Хотьково, ул. Майолик, д. 19г",
            "latitude": "56.253077",
            "longitude": "37.978893"
        },
        "chain_store": {
            "name": "Лента"
        }
    },
    {
        "id_store": "3072",
        "name": "Лента",
        "location": {
            "region": "Москва и МО",
            "city": "Москва",
            "address": "г. Чехов, ул. Лопасненская, д. 8",
            "latitude": "55.147412",
            "longitude": "37.45849"
        },
        "chain_store": {
            "name": "Лента"
        }
    },
    {
        "id_store": "1422",
        "name": "Лента",
        "location": {
            "region": "Москва и МО",
            "city": "Москва",
            "address": "г. Чехов, ул. Полиграфистов, д. 21/1",
            "latitude": "55.155669",
            "longitude": "37.479807"
        },
        "chain_store": {
            "name": "Лента"
        }
    },
    {
        "id_store": "3169",
        "name": "Лента",
        "location": {
            "region": "Москва и МО",
            "city": "Москва",
            "address": "г. Шатура, ул. Радченко, д. 12",
            "latitude": "55.579785",
            "longitude": "39.541584"
        },
        "chain_store": {
            "name": "Лента"
        }
    },
    {
        "id_store": "0108",
        "name": "Лента",
        "location": {
            "region": "Москва и МО",
            "city": "Москва",
            "address": "д. Шолохово, ш. Дмитровское, стр. 10",
            "latitude": "56.047752",
            "longitude": "37.54301"
        },
        "chain_store": {
            "name": "Лента"
        }
    },
    {
        "id_store": "3099",
        "name": "Лента",
        "location": {
            "region": "Москва и МО",
            "city": "Москва",
            "address": "г. Щёлково, ул. Сиреневая, д. 9",
            "latitude": "55.928244",
            "longitude": "37.986519"
        },
        "chain_store": {
            "name": "Лента"
        }
    }
]
